{
  "version":1234,
  "locations":[
    {
      "name":"Belle Glade Pool",
      "address":"1224 SW Ave E Place, Belle Glade, FL 33430",
      "phone":"561-993-0728",
      "latitude":"26.681778",
      "longitude":"-80.680487",
      "description":"",
      "location_type":"1"
    },
    {
      "name":"Pioneer Park Aquatic Center",
      "address":"866 State Road 715, Belle Glade, FL 33430",
      "phone":"561-993-3892",
      "latitude":"26.671008",
      "longitude":"-80.684676",
      "description":"",
      "location_type":"1"
    },
    {
      "name":"The Swim Center",
      "address":"21618 St. Andrews Blvd., Boca Raton, FL 33433",
      "phone":"561-544-8540",
      "latitude":"26.356569",
      "longitude":"-80.135867",
      "description":"",
      "location_type":"1"
    },
    {
      "name":"Meadows Park Pool",
      "address":"1300 NW 8th St., Boca Raton FL 33486",
      "phone":"561-393-7851",
      "latitude":"26.359529",
      "longitude":"-80.114478",
      "description":"",
      "location_type":"1"
    },
    {
      "name":"YMCA,",
      "address":"6631 Palmetto Circle South, Boca Raton, FL 33433",
      "phone":"561-395-9622",
      "latitude":"26.353375",
      "longitude":"-80.148309",
      "description":"",
      "location_type":"1"
    },
    {
      "name":"JCC Boca Raton",
      "address":"9801 Donna Klein Blvd., Boca Raton, FL 33428",
      "phone":"561-852-3200",
      "latitude":"26.359103",
      "longitude":"-80.195220",
      "description":"",
      "location_type":"1"
    },
    {
      "name":"Coconut Cove Waterpark",
      "address":"20130 Regional Park Drive, Boca Raton, FL 33498",
      "phone":"561-629-8840",
      "latitude":"26.376657",
      "longitude":"-80.225720",
      "description":"",
      "location_type":"1"
    },
    {
      "name":"John Denson Pool at Wilson Park",
      "address":"225 NW 12th Ave., Boynton Beach, FL 33435",
      "phone":"561-629-8840",
      "latitude":"26.537998",
      "longitude":"-80.067653",
      "description":"",
      "location_type":"1"
    },
    {
      "name":"YMCA of South Palm Beach County",
      "address":"9600 Military Trail, Boynton Beach, FL 33436",
      "phone":"561-738-9622",
      "latitude":"26.533366",
      "longitude":"-80.122074",
      "description":"",
      "location_type":"1"
    },
    {
      "name":"Mandel JCC of the Palm Beaches",
      "address":"8500 Jog Road, Boynton Beach, FL 33437",
      "phone":"561-487-8276",
      "latitude":"26.550110",
      "longitude":"-80.148613",
      "description":"",
      "location_type":"1"
    },
    {
      "name":"Aqua Crest Pool",
      "address":"2503 Seacrest Blvd., Delray Beach, FL 33444",
      "phone":"561-278-7104",
      "latitude":"26.489207",
      "longitude":"-80.070642",
      "description":"",
      "location_type":"1"
    },
    {
      "name":"Pompey Park Pool",
      "address":"1101 NW 2nd St., Delray Beach, FL 33444",
      "phone":"561-243-7358",
      "latitude":"26.466226",
      "longitude":"-80.084232",
      "description":"",
      "location_type":"1"
    },
    {
      "name":"North County Aquatic Complex",
      "address":"861 Toney Penna Dr., Jupiter, FL 33458",
      "phone":"561-745-0241",
      "latitude":"26.927081",
      "longitude":"-80.109588",
      "description":"",
      "location_type":"1"
    },
    {
      "name":"Gleneagles Country Club Aquatic Center/ Palm Beach County CMAA Therapeutic Recreation Complex",
      "address":"2728 Lake Worth Road, Lake Worth, FL 33461",
      "phone":"561-966-7080",
      "latitude":"26.616301",
      "longitude":"-80.084622",
      "description":"",
      "location_type":"1"
    },
    {
      "name":"Santaluces Aquatic Complex",
      "address":"6750 Lawrence Road, Lantana, FL 33462",
      "phone":"561-641-9301",
      "latitude":"26.576830",
      "longitude":"-80.101961",
      "description":"",
      "location_type":"1"
    },
    {
      "name":"North Palm Beach Country Club",
      "address":"951 U.S. Highway 1, North Palm Beach, FL 33408",
      "phone":"561-691-3427",
      "latitude":"26.827438",
      "longitude":"-80.061492",
      "description":"",
      "location_type":"1"
    },
    {
      "name":"Palm Beach Gardens Aquatic Complex",
      "address":"4404 Burns Road, Palm Beach Gardens, FL 33410",
      "phone":"561-630-1126",
      "latitude":"26.829802",
      "longitude":"-80.102928",
      "description":"",
      "location_type":"1"
    },
    {
      "name":"Barracuda Bay",
      "address":"1621 W. Blue Heron Blvd., Riviera Beach, FL 33404",
      "phone":"561-845-4070",
      "latitude":"26.781342",
      "longitude":"-80.081142",
      "description":"",
      "location_type":"1"
    },
    {
      "name":"Calypso Bay Waterpark",
      "address":"151 Lamstein Lane, Royal Palm Beach, FL 33411",
      "phone":"561-790-6160",
      "latitude":"26.685435",
      "longitude":"-80.222859",
      "description":"",
      "location_type":"1"
    },
    {
      "name":"Wellington Aquatics Complex",
      "address":"12150 Forest Hill Blvd., Wellington, FL 33414",
      "phone":"561-791-4770",
      "latitude":"26.655058",
      "longitude":"-80.236608",
      "description":"",
      "location_type":"1"
    },
    {
      "name": "Warren Hawkins Aquatic Center",
      "address": "1501 N. Australian Ave., West Palm Beach, FL 33401",
      "phone": "561-804-4961",
      "latitude": "26.727967",
      "longitude": "-80.069471",
      "description": "",
      "location_type": "1"
    },
    {
      "name": "Lake Lytal Family Aquatic Center",
      "address": "3645 Gun Club Road, West Palm Beach, FL 33406",
      "phone": "561-233-1426",
      "latitude": "26.675390",
      "longitude": "-80.098705",
      "description": "",
      "location_type": "1"
    },
    {
      "name": "YMCA of the Palm Beaches",
      "address": "1501 N. Australian Ave., West Palm Beach, FL 33406",
      "phone": "561-968-9622",
      "latitude": "26.727909",
      "longitude": "-80.069503",
      "description": "",
      "location_type": "1"
    },
    {
      "name": "Palm Beach County Fire Rescue Station 57",
      "address": "9030 Vista Del Lago, Boca Raton, FL 33428",
      "phone": "561-616-7033",
      "latitude": "26.352905",
      "longitude": "-80.187342",
      "description": "Fittings are done the third Wednesday of the month from 8:30 a.m. - 12:30 p.m.  Please call to schedule an appointment.",
      "location_type": "2"
    },
    {
      "name": "Boca Raton Police Department",
      "address": "190 SW 18th St., Boca Raton, FL 33432",
      "phone": "561-347-3931",
      "latitude": "26.332004",
      "longitude": "-80.095719",
      "description": "For Boca Raton residents only.  Please call to schedule an appointment.",
      "location_type": "2"
    },
    {
      "name": "Boynton Beach Fire Rescue",
      "address": "3501 N. Congress Ave., Boynton	Beach, FL 33436",
      "phone": "561-742-6343",
      "latitude": "26.484174",
      "longitude": "-80.089778",
      "description": "To schedule an appointment, please leave a message for Sue McMath.",
      "location_type": "2"
    },
    {
      "name": "AutoNation Chevrolet of Greenacres",
      "address": "5757 Lake Worth Rd., Greenacres, FL 33463",
      "phone": "561-841-3500, ext. 4012",
      "latitude": "26.620319",
      "longitude": "-80.132041",
      "description": "Fittings are done the third Thursday of the month from 2:30 - 5:30 p.m. Please call AutoNation to schedule an appointment.",
      "location_type": "2"
    },
    {
      "name": "Greenacres Public Safety",
      "address": "2995 Jog Rd., Greenacres, FL 33467",
      "phone": "561-642-2133",
      "latitude": "26.633298",
      "longitude": "-80.146656",
      "description": "For Greenacres residents only. Fittings are done on Wednesdays from 2 - 5 p.m. Call to schedule an appointment.",
      "location_type": "2"
    },
    {
      "name": "Jupiter Police Dept.",
      "address": "210 Military Trail, Jupiter, FL 33458",
      "phone": "561-741-2383",
      "latitude": "26.932187",
      "longitude": "-80.102608",
      "description": "For Jupiter residents only. To schedule an appointment, please call and leave a message.",
      "location_type": "2"
    },
    {
      "name": "Palm Beach County Fire Rescue Station 16",
      "address": "3550 Military Trail, Jupiter, FL 33458",
      "phone": "561-616-7033",
      "latitude": "26.900447",
      "longitude": "-80.103677",
      "description": "Fittings are done the first Wednesday of the month from 8:30 a.m. - 12:30 p.m. Please call to schedule an appointment.",
      "location_type": "2"
    }
  ]
}